City_ID,City,Country,Max Temp,Current Description,Lat,Lng,Hotel Name
66,Vaini,TO,87.96,scattered clouds,-21.2,-175.2,Keleti International Resort
140,Kununurra,AU,86.94,overcast clouds,-15.7667,128.7333,Kununurra Country Club Resort
310,Cairns,AU,85.1,broken clouds,-16.9167,145.7667,Cairns Queens Court Accommodation
372,Moron,AR,85.89,few clouds,-34.6534,-58.6198,La Esquina
460,Rio Tercero,AR,88.81,few clouds,-32.173,-64.1141,hotel Argentino
511,Noumea,NC,85.98,broken clouds,-22.2763,166.4572,Hotel Gondwana
